GPS time,iTOW,EKF Raw Z Gyro,EKF Raw X Gyro,EKF Raw Y Gyro,EKF Raw X Accel,EKF Raw Y Accel,EKF Raw Z Accel
2022:120847.300,120847.3,0.39,-0.41,-0.36,0.24,-0.48,10.34
2022:120847.700,120847.7,0.37,-0.32,-0.31,0.25,-0.47,10.35
,120847.9,0.34,-0.32,-0.3,0.25,-0.48,10.35
2022:120848.100,120848.1,0.36,-0.31,-0.19,0.26,-0.49,10.36
,120848.3,,,,,,
2022:120848.500,120848.5,0.37,-0.29,-0.23,0.24,-0.48,10.36
,120848.7,0.35,-0.33,-0.29,0.24,-0.48,10.36
2022:120848.900,120848.9,0.27,-0.28,-0.22,0.23,-0.48,10.35
2022:120849.100,120849.1,,,,,,
2022:120849.300,120849.3,0.33,-0.3,-0.23,0.25,-0.49,10.35
2022:120849.500,120849.5,0.34,-0.21,-0.25,0.24,-0.47,10.37
,120849.7,0.37,-0.37,-0.32,0.23,-0.48,10.35
2022:120849.900,120849.9,0.31,-0.27,-0.23,0.24,-0.47,10.33
2022:120850.300,120850.3,0.39,-0.34,-0.34,0.26,-0.47,10.35
2022:120850.500,120850.5,0.43,-0.4,-0.35,0.25,-0.49,10.36
2022:120850.700,120850.7,0.33,-0.32,-0.29,0.24,-0.47,10.38
2022:120850.900,120850.9,0.37,-0.41,-0.31,0.24,-0.47,10.35
2022:120851.100,120851.1,0.32,-0.29,-0.17,0.24,-0.48,10.35
2022:120851.400,120851.4,0.33,-0.41,-0.29,0.24,-0.48,10.34
2022:120851.600,120851.6,0.37,-0.34,-0.36,0.24,-0.48,10.36
2022:120852.000,120852,0.38,-0.29,-0.29,0.25,-0.49,10.34
,120852.3,0.42,-0.33,-0.36,0.24,-0.48,10.36
2022:120852.500,120852.5,0.33,-0.37,-0.31,0.24,-0.48,10.37
2022:120852.700,120852.7,,,,,,
,120852.9,0.31,-0.28,-0.18,0.24,-0.47,10.34
2022:120853.100,120853.1,0.37,-0.34,-0.29,0.26,-0.51,10.35
2022:120853.300,120853.3,,,,,,
2022:120853.500,120853.5,0.34,-0.5,-0.34,0.24,-0.45,10.38
2022:120853.700,120853.7,,,,,,
,120853.9,0.36,-0.37,-0.32,0.23,-0.45,10.38
,120854.1,0.35,-0.47,-0.32,0.24,-0.5,10.35
2022:120854.300,120854.3,0.29,-0.14,-0.15,0.24,-0.48,10.33
,120854.5,0.46,-0.46,-0.36,0.25,-0.47,10.38
2022:120854.700,120854.7,,,,,,
,120854.9,0.33,-0.43,-0.3,0.25,-0.46,10.36
2022:120855.100,120855.1,0.4,-0.51,-0.43,0.25,-0.52,10.36
2022:120855.300,120855.3,0.35,-0.12,-0.28,0.23,-0.5,10.32
2022:120855.500,120855.5,0.33,-0.26,-0.23,0.27,-0.42,10.37
2022:120855.700,120855.7,0.33,-0.4,-0.26,0.24,-0.51,10.34
2022:120855.900,120855.9,0.33,-0.29,-0.33,0.27,-0.47,10.36
2022:120856.100,120856.1,0.32,-0.14,-0.08,0.22,-0.5,10.31
2022:120856.300,120856.3,,,,,,
,120856.5,0.28,-0.38,-0.19,0.25,-0.52,10.32
,120856.7,0.38,-0.22,-0.39,0.22,-0.45,10.37
2022:120856.900,120856.9,0.35,-0.36,-0.2,0.27,-0.5,10.38
2022:120857.100,120857.1,0.3,-0.21,-0.27,0.21,-0.48,10.32
2022:120857.300,120857.3,0.33,-0.33,-0.22,0.27,-0.46,10.35
2022:120857.500,120857.5,0.37,-0.39,-0.32,0.23,-0.48,10.34
,120857.7,0.24,-0.3,-0.17,0.26,-0.47,10.35
2022:120857.900,120857.9,0.42,-0.37,-0.37,0.24,-0.46,10.32
2022:120858.100,120858.1,0.25,-0.22,-0.14,0.23,-0.46,10.34
2022:120858.300,120858.3,0.31,-0.37,-0.21,0.24,-0.47,10.35
,120858.5,0.33,-0.24,-0.23,0.25,-0.49,10.34
,120858.7,0.3,-0.27,-0.28,0.22,-0.47,10.35
2022:120858.900,120858.9,0.23,-0.32,-0.19,0.22,-0.48,10.33
2022:120859.100,120859.1,0.35,-0.38,-0.31,0.26,-0.47,10.34
2022:120859.300,120859.3,,,,,,
,120859.5,0.32,-0.29,-0.23,0.23,-0.48,10.34
,120859.7,0.33,-0.32,-0.25,0.24,-0.48,10.34
2022:120859.900,120859.9,0.17,-0.42,-0.24,0.23,-0.45,10.27
2022:120860.100,120860.1,0.47,-0.75,-0.59,0.24,-0.52,10.44
2022:120860.300,120860.3,0.4,-0.28,-0.42,0.26,-0.53,10.32
2022:120860.500,120860.5,0.26,-0.13,-0.12,0.22,-0.42,10.31
2022:120860.700,120860.7,0.42,-0.43,-0.23,0.28,-0.5,10.38
,120860.9,0.31,-0.13,-0.11,0.22,-0.46,10.37
2022:120861.100,120861.1,0.39,-0.32,-0.32,0.24,-0.43,10.36
,120861.3,0.36,-0.22,-0.3,0.23,-0.51,10.32
2022:120861.500,120861.5,0.34,-0.3,-0.28,0.25,-0.47,10.38
2022:120861.700,120861.7,0.38,-0.37,-0.3,0.23,-0.49,10.34
2022:120861.900,120861.9,0.35,-0.38,-0.36,0.25,-0.5,10.35
2022:120862.100,120862.1,0.35,-0.28,-0.23,0.23,-0.47,10.36
2022:120862.300,120862.3,0.38,-0.34,-0.29,0.25,-0.47,10.34
,120862.5,0.39,-0.32,-0.27,0.25,-0.49,10.35
2022:120862.700,120862.7,0.32,-0.33,-0.27,0.23,-0.49,10.38
2022:120862.900,120862.9,0.38,-0.39,-0.35,0.24,-0.49,10.38
2022:120863.100,120863.1,,,,,,
2022:120863.300,120863.3,0.37,-0.23,-0.25,0.26,-0.49,10.34
,120863.5,0.34,-0.35,-0.23,0.25,-0.49,10.34
2022:120863.700,120863.7,0.28,-0.26,-0.19,0.22,-0.48,10.34
2022:120863.900,120863.9,0.37,-0.28,-0.28,0.28,-0.48,10.36
2022:120864.100,120864.1,0.38,-0.21,-0.25,0.23,-0.5,10.34
,120864.3,0.42,-0.38,-0.39,0.26,-0.48,10.37
2022:120864.500,120864.5,0.34,-0.32,-0.23,0.22,-0.49,10.35
2022:120864.700,120864.7,0.39,-0.39,-0.26,0.27,-0.5,10.34
2022:120864.900,120864.9,0.36,-0.28,-0.33,0.23,-0.49,10.35
2022:120865.100,120865.1,0.38,-0.32,-0.22,0.26,-0.48,10.37
2022:120865.300,120865.3,0.32,-0.33,-0.29,0.24,-0.49,10.36
2022:120865.500,120865.5,0.39,-0.32,-0.3,0.26,-0.48,10.36
2022:120865.700,120865.7,0.36,-0.23,-0.22,0.24,-0.5,10.33
,120865.9,0.35,-0.27,-0.24,0.25,-0.48,10.38
2022:120866.100,120866.1,0.32,-0.31,-0.23,0.24,-0.49,10.37
2022:120866.300,120866.3,0.34,-0.16,-0.18,0.24,-0.5,10.34
2022:120866.700,120866.7,0.33,-0.41,-0.3,0.27,-0.48,10.36
,120866.9,0.37,-0.3,-0.32,0.25,-0.5,10.38
2022:120867.100,120867.1,,,,,,
,120867.3,0.4,-0.28,-0.29,0.25,-0.51,10.32
,120867.5,0.38,-0.32,-0.31,0.26,-0.48,10.36
2022:120867.700,120867.7,0.35,-0.31,-0.25,0.24,-0.49,10.37
2022:120867.900,120867.9,0.31,-0.36,-0.31,0.27,-0.49,10.37
2022:120868.100,120868.1,0.39,-0.27,-0.3,0.23,-0.49,10.34
2022:120868.300,120868.3,0.39,-0.35,-0.34,0.27,-0.5,10.38
,120868.5,0.3,-0.3,-0.18,0.22,-0.48,10.34
2022:120868.700,120868.7,0.34,-0.29,-0.19,0.27,-0.5,10.37
2022:120869.000,120869,0.31,-0.26,-0.25,0.23,-0.48,10.36
2022:120869.200,120869.2,0.4,-0.45,-0.29,0.28,-0.48,10.36
2022:120869.400,120869.4,0.41,-0.46,-0.36,0.24,-0.51,10.34
2022:120869.600,120869.6,0.37,-0.26,-0.29,0.25,-0.49,10.33
2022:120869.800,120869.8,0.39,-0.46,-0.38,0.26,-0.49,10.36
2022:120870.300,120870.3,0.39,-0.39,-0.28,0.24,-0.51,10.36
,120870.5,0.35,-0.13,-0.26,0.25,-0.48,10.35
,120870.7,0.34,-0.47,-0.26,0.24,-0.5,10.34
2022:120870.900,120870.9,0.38,-0.33,-0.32,0.25,-0.5,10.4
2022:120871.100,120871.1,0.25,-0.23,-0.18,0.23,-0.44,10.35
2022:120871.300,120871.3,0.61,-0.86,-0.51,0.26,-0.56,10.37
2022:120871.500,120871.5,0.23,-0.74,-0.1,0.32,-0.64,10.44
2022:120871.700,120871.7,0.37,-1.17,-0.33,0.31,-0.58,10.45
,120871.9,0.35,-0.38,-0.38,0.22,-0.55,10.37
,120872.1,0.4,-0.56,-0.39,0.25,-0.52,10.37
,120872.5,0.34,-0.17,-0.23,0.24,-0.49,10.36
2022:120872.700,120872.7,0.29,-0.28,-0.17,0.26,-0.49,10.33
2022:120872.900,120872.9,0.37,-0.35,-0.27,0.24,-0.49,10.36
2022:120873.100,120873.1,0.36,-0.27,-0.2,0.26,-0.53,10.38
2022:120873.300,120873.3,0.41,-0.53,-0.4,0.23,-0.46,10.33
2022:120873.500,120873.5,0.33,-0.22,-0.24,0.26,-0.56,10.34
,120873.7,0.36,-0.27,-0.22,0.23,-0.46,10.37
2022:120873.900,120873.9,0.37,-0.36,-0.25,0.26,-0.54,10.35
2022:120874.100,120874.1,0.39,-0.37,-0.37,0.24,-0.48,10.36
2022:120874.300,120874.3,0.42,-0.18,-0.3,0.24,-0.52,10.36
2022:120874.500,120874.5,0.34,-0.33,-0.29,0.25,-0.47,10.34
,120874.7,0.41,-0.42,-0.27,0.26,-0.51,10.38
2022:120874.900,120874.9,0.41,-0.26,-0.27,0.26,-0.5,10.33
2022:120875.100,120875.1,0.3,-0.27,-0.22,0.25,-0.47,10.36
2022:120875.300,120875.3,0.36,-0.39,-0.28,0.26,-0.54,10.36
,120875.5,0.37,-0.33,-0.22,0.25,-0.46,10.38
2022:120875.700,120875.7,0.35,-0.37,-0.24,0.26,-0.55,10.33
2022:120875.900,120875.9,0.4,-0.24,-0.32,0.26,-0.47,10.36
,120876.1,0.34,-0.43,-0.27,0.24,-0.52,10.37
,120876.3,0.23,-0.28,-0.13,0.18,-0.49,10.35
,120876.5,0.32,-0.31,-0.27,0.17,-0.51,10.36
2022:120876.700,120876.7,0.41,-0.21,-0.25,0.16,-0.53,10.34
2022:120876.900,120876.9,0.45,-0.39,-0.28,0.21,-0.48,10.38
,120877.1,0.38,-0.27,-0.24,0.23,-0.5,10.33
2022:120877.300,120877.3,0.41,-0.27,-0.24,0.25,-0.54,10.38
2022:120877.500,120877.5,0.41,-0.38,-0.31,0.23,-0.5,10.38
2022:120877.700,120877.7,0.43,-0.35,-0.28,0.26,-0.52,10.35
,120877.9,0.47,-0.24,-0.28,0.27,-0.5,10.34
2022:120878.100,120878.1,0.31,-0.57,-0.33,0.44,-0.46,10.42
2022:120878.300,120878.3,0.24,-0.02,-0.01,0.36,-0.49,10.29
2022:120878.500,120878.5,0.29,-0.35,-0.2,0.25,-0.46,10.39
,120878.7,0.3,-0.49,-0.32,0.26,-0.54,10.37
2022:120878.900,120878.9,0.29,-0.25,-0.17,0.24,-0.54,10.37
2022:120879.100,120879.1,0.27,-0.13,-0.2,0.2,-0.47,10.32
2022:120879.300,120879.3,0.36,-0.31,-0.29,0.17,-0.49,10.34
2022:120879.500,120879.5,0.39,-0.39,-0.3,0.28,-0.5,10.39
2022:120879.700,120879.7,0.38,-0.27,-0.31,0.23,-0.5,10.31
2022:120879.900,120879.9,0.36,-0.26,-0.25,0.18,-0.54,10.38
2022:120880.100,120880.1,0.37,-0.32,-0.21,0.17,-0.5,10.36
2022:120880.300,120880.3,0.44,-0.29,-0.3,0.2,-0.5,10.35
,120880.5,0.46,-0.36,-0.3,0.19,-0.5,10.35
2022:120880.700,120880.7,0.46,-0.34,-0.27,0.18,-0.49,10.35
2022:120880.900,120880.9,0.47,-0.34,-0.27,0.2,-0.51,10.36
2022:120881.100,120881.1,0.55,-0.36,-0.3,0.2,-0.51,10.37
2022:120881.300,120881.3,0.57,-0.4,-0.32,0.19,-0.49,10.37
2022:120881.500,120881.5,0.59,-0.23,-0.23,0.21,-0.5,10.35
2022:120881.700,120881.7,,,,,,
,120881.9,0.58,-0.41,-0.26,0.18,-0.54,10.36
2022:120882.100,120882.1,0.78,-0.27,-0.27,0.13,-0.56,10.35
2022:120882.300,120882.3,0.81,-0.19,-0.05,0.02,-0.52,10.36
,120882.5,1.04,-0.36,-0.32,0.06,-0.53,10.41
2022:120882.700,120882.7,1.18,-0.25,-0.24,0.12,-0.55,10.34
2022:120882.900,120882.9,1.16,-0.14,-0.17,0.11,-0.52,10.35
,120883.1,1.48,-0.18,-0.25,0.02,-0.49,10.39
,120883.3,1.59,-0.44,-0.42,0.07,-0.49,10.4
2022:120883.500,120883.5,1.62,-0.27,-0.24,0.07,-0.6,10.31
2022:120883.700,120883.7,1.59,-0.15,-0.05,0.06,-0.51,10.39
2022:120883.900,120883.9,1.75,-0.11,-0.3,0.02,-0.52,10.36
,120884.1,1.56,0.12,-0.01,0.03,-0.51,10.38
,120884.3,2.23,-0.5,-0.99,0.29,-0.48,10.28
2022:120884.500,120884.5,1.44,-0.36,-0.07,0.33,-0.48,10.45
2022:120884.700,120884.7,1.41,0.03,-0.5,0.27,-0.49,10.29
2022:120884.900,120884.9,1.06,-0.08,0.15,0.26,-0.43,10.41
2022:120885.100,120885.1,0.87,-0.14,-0.14,0.18,-0.49,10.37
,120885.3,0.99,-0.23,-0.16,0.13,-0.48,10.31
2022:120885.500,120885.5,1.19,-0.25,-0.3,0.02,-0.51,10.43
2022:120885.700,120885.7,1.14,-0.21,-0.19,-0.04,-0.51,10.31
,120885.9,1.16,-0.22,-0.18,-0.02,-0.5,10.42
2022:120886.100,120886.1,1.08,-0.29,-0.26,-0.16,-0.51,10.33
2022:120886.300,120886.3,0.86,-0.19,-0.21,-0.14,-0.51,10.44
2022:120886.500,120886.5,0.73,-0.19,-0.18,-0.15,-0.48,10.37
2022:120886.700,120886.7,0.59,-0.17,-0.08,-0.21,-0.41,10.38
,120886.9,0.39,-0.18,-0.41,-0.13,-0.47,10.38
2022:120887.100,120887.1,0.21,-0.12,-0.21,-0.13,-0.43,10.38
,120887.3,-0.1,-0.13,-0.03,-0.25,-0.53,10.34
2022:120887.700,120887.7,-0.02,-0.49,-0.37,-0.29,-0.42,10.45
2022:120887.900,120887.9,-0.18,-0.45,-0.25,-0.33,-0.41,10.39
2022:120888.100,120888.1,-0.31,0.01,-0.24,-0.3,-0.46,10.36
2022:120888.300,120888.3,-0.4,0.03,0.27,-0.29,-0.43,10.33
,120888.5,-0.56,-0.36,-0.11,-0.35,-0.4,10.52
2022:120888.700,120888.7,-0.6,-0.66,0.37,-0.34,-0.39,10.36
2022:120888.900,120888.9,-1.03,0.08,0.25,-0.43,-0.45,10.36
2022:120889.300,120889.3,-1.65,-0.58,0.2,-0.45,-0.29,10.48
,120889.5,-0.67,-0.28,-0.3,-0.31,-0.45,10.2
2022:120889.700,120889.7,-1.08,-0.83,-0.97,-0.32,-0.39,10.54
,120889.9,-1.7,-0.12,0.06,-0.39,-0.36,10.37
2022:120890.100,120890.1,-1.64,-0.49,-1.18,-0.17,-0.5,10.48
2022:120890.300,120890.3,-1.25,-0.07,-0.43,-0.38,-0.43,10.25
,120890.5,-1.25,-0.13,-0.42,-0.24,-0.43,10.47
2022:120890.700,120890.7,-0.36,-1.09,-0.13,-0.2,-0.56,10.36
2022:120890.900,120890.9,-0.27,-0.66,-0.31,-0.13,-0.45,10.3
,120891.1,-0.61,0.36,-0.62,-0.01,-0.47,10.12
2022:120891.300,120891.3,-0.48,-0.27,-0.26,-0.08,-0.37,10.62
2022:120891.500,120891.5,-0.61,-0.22,-0.15,-0.03,-0.42,10.35
2022:120891.700,120891.7,-0.86,-0.64,-0.33,0.01,-0.36,10.45
2022:120891.900,120891.9,-0.89,-0.35,-0.27,0.04,-0.41,10.37
2022:120892.100,120892.1,-0.95,0.15,-0.28,0.07,-0.43,10.31
,120892.3,-1.53,0.44,0.55,0.1,-0.34,10.35
2022:120892.500,120892.5,-1.29,-0.03,0.25,-0.03,-0.3,10.63
2022:120892.700,120892.7,-0.9,-1.26,-0.69,0.09,-0.36,10.28
2022:120892.900,120892.9,-1.04,-0.08,0.43,0.12,-0.49,10.48
2022:120893.100,120893.1,-0.71,-0.68,-0.4,-0.11,-0.43,10.42
,120893.3,-0.57,0.54,0.75,0.19,-0.54,10.34
2022:120893.500,120893.5,0.8,-1.29,-0.76,0.19,-0.53,10.77
2022:120893.700,120893.7,1.25,-0.33,0.42,0.21,-0.56,10.13
2022:120893.900,120893.9,0.85,-0.18,0.36,-0.04,-0.4,10.44
2022:120894.100,120894.1,0.91,-0.95,-0.73,0.12,-0.45,10.17
2022:120894.300,120894.3,0.12,0.32,0.91,0.08,-0.4,10.48
2022:120894.500,120894.5,-0.3,-1.1,-0.79,0.04,-0.23,10.52
2022:120894.700,120894.7,-0.41,-0.43,0.32,0.29,-0.45,10.26
2022:120894.900,120894.9,-0.5,-0.84,-0.57,0.45,-0.39,10.51
2022:120895.100,120895.1,-0.35,-0.37,-0.01,0.36,-0.46,10.1
2022:120895.300,120895.3,-0.39,-0.99,-0.02,0.43,-0.45,10.65
,120895.5,0.16,-1.07,-0.52,0.39,-0.58,10.05
2022:120895.700,120895.7,0.45,0.22,1.05,0.38,-0.65,10.23
2022:120895.900,120895.9,0.9,-1.71,-0.42,0.52,-0.63,10.83
2022:120896.100,120896.1,0.89,0.62,0.58,0.32,-0.45,9.98
2022:120896.500,120896.5,,,,,,
,120896.7,0.58,0.21,-0.17,0.37,-0.61,10.13
2022:120896.900,120896.9,0.01,-0.03,0.86,0.41,-0.6,10.68
2022:120897.100,120897.1,0.25,0.28,-0.91,0.33,-0.55,9.93
,120897.3,-0.39,0.16,0.77,0.45,-0.49,10.73
2022:120897.500,120897.5,-0.37,-0.87,-0.65,0.38,-0.35,10.19
,120897.7,-0.97,-0.14,-0.28,0.42,-0.45,10.51
2022:120898.100,120898.1,-0.26,0.18,-0.16,0.4,-0.49,10.2
2022:120898.300,120898.3,-0.3,-0.39,-0.27,0.48,-0.56,10.49
2022:120898.500,120898.5,-0.01,-0.03,0,0.47,-0.48,10.39
2022:120898.900,120898.9,,,,,,
,120899.1,1.44,-0.36,-0.65,0.31,-0.69,10.29
2022:120899.300,120899.3,1.04,-0.14,-0.43,0.34,-0.62,10.36
2022:120899.500,120899.5,,,,,,
,120899.7,2.55,-0.44,-0.49,0.16,-0.85,10.46
2022:120899.900,120899.9,4.55,0.11,0.03,0.01,-0.82,10.48
,120900.3,5.47,0.17,-0.4,-0.05,-0.8,10.19
2022:120900.500,120900.5,6.15,0.13,0,-0.08,-0.79,10.47
2022:120900.700,120900.7,6.65,0.36,-0.07,-0.23,-0.75,10.25
2022:120900.900,120900.9,5.9,1.12,0.29,-0.58,-0.44,10.25
2022:120901.300,120901.3,3.08,1.11,0.34,-0.66,-0.24,10.34
2022:120901.700,120901.7,1.92,0.85,0.9,-0.93,-0.07,10.52
,120901.9,,,,,,
2022:120902.100,120902.1,-0.44,0.62,0.93,-0.47,0.06,10.5
2022:120902.300,120902.3,-0.87,-0.05,0.07,-0.84,-0.09,10.4
,120902.5,0.61,-4.72,-1.11,0.19,-0.46,11.47
2022:120902.900,120902.9,-7.5,4.01,6.37,-1.25,-0.25,7.58
2022:120903.100,120903.1,,,,,,
2022:120903.300,120903.3,,,,,,
2022:120903.500,120903.5,-2,-1.32,-0.62,-1.24,0,10.4
2022:120903.700,120903.7,-0.77,-2.16,-1.67,0.25,-0.27,10.69
2022:120903.900,120903.9,-5.53,1.2,2.65,-0.71,-0.26,9.61
2022:120904.100,120904.1,,,,,,
,120904.3,-0.54,0.11,-3.83,-0.89,-0.02,10.04
2022:120904.500,120904.5,-0.45,-3.05,-0.15,-0.33,-0.27,10.61
2022:120904.700,120904.7,-0.37,-1.68,-0.75,-0.6,-0.18,10.76
,120905.1,-1,-0.64,-0.32,-0.7,-0.23,10.29
2022:120905.300,120905.3,-0.62,-0.76,-0.08,-0.72,-0.18,10.41
2022:120905.500,120905.5,-0.91,-1.2,0.13,-0.61,-0.27,10.66
2022:120905.700,120905.7,0.06,-1.05,0,-0.65,-0.29,10.52
2022:120906.100,120906.1,-0.03,-0.31,0.37,-0.78,-0.41,10.31
2022:120906.300,120906.3,-0.28,-0.58,0.13,-0.65,-0.3,10.75
2022:120906.500,120906.5,-0.19,0.41,0.29,-0.79,-0.24,10.17
2022:120906.700,120906.7,-0.47,-0.64,-0.7,-0.81,-0.15,10.47
2022:120906.900,120906.9,-0.68,-0.24,0.72,-0.66,-0.32,10.48
,120907.1,-0.63,-0.14,-0.34,-0.51,-0.22,10.38
,120907.3,-0.53,-0.81,-0.84,-0.33,-0.1,10.23
2022:120907.500,120907.5,-0.03,-0.64,-0.34,-0.35,-0.2,10.57
2022:120907.700,120907.7,-1.27,-0.03,-0.85,-0.02,-0.15,10.19
2022:120907.900,120907.9,-1.48,-0.27,0.25,0.09,-0.08,10.61
2022:120908.100,120908.1,-1.82,-0.54,0.13,-0.09,-0.03,10.16
,120908.3,-1.94,-0.89,-0.14,0.13,-0.08,10.44
2022:120908.500,120908.5,-1.92,-0.85,0.3,0.11,-0.26,10.52
2022:120908.700,120908.7,-1.81,-0.67,0.02,-0.06,-0.15,10.26
2022:120908.900,120908.9,-0.5,-1.77,-0.64,-0.13,-0.45,10.52
,120909.1,0.09,-0.28,-0.24,-0.5,-0.57,10.21
2022:120909.300,120909.3,2.02,-1.76,-1.36,-0.54,-0.72,10.5
,120909.5,2.78,-1.95,-2.2,-0.25,-0.89,10.3
2022:120909.700,120909.7,2.84,-0.41,0.56,-0.55,-0.82,10.52
,120909.9,2.13,-0.09,-0.27,-0.74,-0.38,10.46
2022:120910.100,120910.1,1.27,-0.29,0.26,-0.75,-0.28,10.83
,120910.3,-0.08,-0.22,-0.48,-0.78,-0.29,10.13
,120910.5,-0.39,0.43,0.1,-0.71,-0.41,10.19
,120910.7,-0.25,-0.85,-0.23,-0.64,-0.49,10.75
2022:120910.900,120910.9,0.7,-0.11,-0.82,-0.66,-0.61,10.22
2022:120911.100,120911.1,1.71,-0.88,-0.78,-0.53,-0.67,10.33
2022:120911.300,120911.3,2.21,-0.62,-0.08,-0.6,-0.74,10.46
2022:120911.500,120911.5,2.62,-0.55,-0.44,-0.76,-0.79,10.24
2022:120911.700,120911.7,2.57,-0.53,-0.35,-0.58,-0.68,10.75
2022:120911.900,120911.9,2.49,-0.22,-0.47,-0.83,-0.54,10.13
,120912.1,,,,,,
,120912.3,0.65,0.52,0.01,-0.74,-0.41,10.5
2022:120912.500,120912.5,-0.07,0.56,0.07,-0.86,-0.2,10.31
2022:120912.700,120912.7,-0.5,-1,0.04,-0.53,-0.35,10.78
,120912.9,-0.62,0.11,0.63,-0.9,-0.32,10.1
2022:120913.100,120913.1,0.05,-0.94,-0.99,-0.44,-0.29,10.29
2022:120913.300,120913.3,-0.38,0.03,0.24,-0.78,-0.39,10.48
,120913.5,0.73,-1.18,-1.75,-0.7,-0.6,10.05
2022:120913.700,120913.7,-0.12,0.06,-0.46,-0.45,-0.52,10.55
,120913.9,-0.16,0.59,0.33,-0.65,-0.29,10.27
2022:120914.100,120914.1,0.03,-1.03,-0.84,-0.29,-0.39,10.74
,120914.3,-0.83,0.85,0.95,-0.33,-0.3,10.09
2022:120914.500,120914.5,-0.45,-1.72,-1.01,-0.32,-0.19,10.56
,120914.7,-0.74,0.5,0.37,-0.09,-0.4,10.14
,120914.9,-0.61,-1.02,-1.67,-0.17,-0.23,10.4
2022:120915.100,120915.1,-0.62,0.06,0.46,0.2,-0.34,10.34
2022:120915.300,120915.3,-1.19,0.33,-0.24,-0.3,-0.37,10.21
2022:120915.500,120915.5,-0.52,-0.57,-0.08,0.29,-0.18,10.63
,120915.7,-1.03,-0.48,0.03,-0.14,-0.33,10.33
,120915.9,-0.27,-1.72,-1.27,0.12,-0.42,10.57
2022:120916.100,120916.1,-0.09,-0.1,0.97,0.04,-0.46,10.24
2022:120916.300,120916.3,1.58,-1.21,-2.22,-0.11,-0.73,10.18
2022:120916.500,120916.5,1.65,0.09,1.34,-0.05,-0.81,10.6
,120916.7,2.74,-1,-0.28,-0.43,-0.71,10.21
,120916.9,3.02,-0.2,0.33,-0.37,-0.88,10.4
2022:120917.100,120917.1,1.45,-1.11,0.03,-0.75,-0.56,10.47
2022:120917.300,120917.3,3.1,0.44,-0.27,-0.61,-0.76,9.96
2022:120917.500,120917.5,1.2,-0.81,-0.42,-0.55,-0.55,10.28
2022:120917.700,120917.7,0.69,0.11,0.26,-0.75,-0.42,9.97
2022:120917.900,120917.9,0.21,-1.19,-0.72,-0.73,-0.46,10.97
,120918.1,-0.48,0.78,-0.28,-0.79,-0.34,9.85
2022:120918.300,120918.3,-0.06,-0.49,-1.54,-0.65,-0.37,10.3
,120918.5,-0.44,0.18,-1.29,-0.47,-0.43,10.27
2022:120918.700,120918.7,0.19,0.25,-1.05,-0.64,-0.55,10.06
2022:120918.900,120918.9,-0.43,0.91,-0.92,-0.57,-0.54,10.53
2022:120919.100,120919.1,-0.43,1.8,-0.46,-0.75,-0.41,10.08
2022:120919.300,120919.3,0.54,-2.04,-2.64,-0.55,-0.3,10.73
,120919.5,-0.7,1.23,-0.82,-0.66,-0.42,10.17
2022:120919.700,120919.7,0.02,-0.74,-1.63,-0.63,-0.15,10.5
2022:120919.900,120919.9,0.18,-0.62,-0.88,-0.59,-0.24,10.34
2022:120920.100,120920.1,0.84,-0.82,-1.9,-0.49,-0.5,10.27
2022:120920.300,120920.3,0.68,-0.14,-0.4,-0.41,-0.45,9.92
2022:120920.500,120920.5,2.66,-2.22,-5.16,0.34,-0.45,9.98
2022:120920.700,120920.7,0.98,-0.75,-3.13,0.6,-0.43,10.63
,120920.9,1.04,-0.86,-2.15,0.35,-0.46,9.86
2022:120921.100,120921.1,0.8,-0.36,0.44,0.42,-0.43,10.5
2022:120921.300,120921.3,0.53,-0.33,-1.14,0.37,-0.43,10.05
2022:120921.500,120921.5,0.45,-0.02,0.17,0.55,-0.34,10.63
2022:120921.700,120921.7,1.11,-0.32,-1.17,0.4,-0.52,9.97
2022:120921.900,120921.9,0.59,-0.18,0.3,0.56,-0.5,10.71
,120922.1,0.82,-0.85,-0.76,0.35,-0.29,9.89
2022:120922.300,120922.3,0.73,0.28,-0.41,0.55,-0.7,10.73
2022:120922.500,120922.5,-0.22,0.14,-0.74,0.44,-0.3,10.02
2022:120922.700,120922.7,0.31,-1.11,0.07,0.46,-0.31,10.79
2022:120922.900,120922.9,0.42,-0.45,-0.59,-0.07,-0.44,9.94
,120923.1,0.56,-2.13,-0.95,0.25,-0.4,10.79
,120923.3,0.21,-0.33,0.26,0.21,-0.38,10.05
2022:120923.500,120923.5,0.82,-1.71,-1.29,0.36,-0.5,10.4
,120923.7,0.51,-0.35,0.72,0.18,-0.49,10.3
2022:120923.900,120923.9,0.59,-0.8,-0.9,0.14,-0.45,10.11
2022:120924.100,120924.1,0.26,0,-0.34,0.2,-0.57,10.39
,120924.3,-0.28,0.02,-1.19,0.18,-0.31,10.15
,120924.5,0.01,0.19,-0.42,0.27,-0.41,10.68
2022:120924.700,120924.7,-0.17,-0.96,-0.79,0.24,-0.34,10.56
2022:120925.000,120925,-0.7,0.28,0.16,0.18,-0.3,10.41
2022:120925.300,120925.3,-0.11,-0.63,-0.49,0.3,-0.47,10.62
2022:120925.500,120925.5,0.65,-0.16,-0.12,0.25,-0.57,10.11
,120925.7,1.27,-0.53,-0.56,0.19,-0.54,10.56
2022:120925.900,120925.9,1.05,0.26,-0.11,-0.09,-0.52,10.06
,120926.5,1.33,-1.62,-0.37,-0.06,-0.51,10.39
2022:120926.700,120926.7,1.39,0.16,-0.44,-0.08,-0.53,10.27
,120926.9,1.2,-1.16,-1.09,0.18,-0.5,10.39
,120927.1,0.76,0.63,0.43,0.37,-0.45,10.06
2022:120927.300,120927.3,0.43,-1.14,-1.83,0.4,-0.39,10.45
,120927.5,0.01,0.64,0.55,0.38,-0.32,10.28
2022:120927.700,120927.7,0.33,-2.4,-1.58,0.48,-0.36,10.4
2022:120927.900,120927.9,0.06,0.92,0.61,0.45,-0.43,10.08
,120928.1,0.1,-1.21,-0.74,0.47,-0.44,10.4
,120928.3,0.29,0.32,0.36,0.49,-0.41,10.26
2022:120928.500,120928.5,0.34,-0.96,-1.12,0.45,-0.42,10.14
2022:120928.700,120928.7,0.13,0.5,0.46,0.53,-0.44,10.29
2022:120928.900,120928.9,0.51,1.02,0.97,0.66,-0.56,10.12
,120929.3,0.91,-1.49,-1.28,0.66,-0.49,10.43
2022:120929.500,120929.5,1.99,0.37,-0.62,0.85,-0.56,10.5
2022:120929.700,120929.7,1.29,-0.36,0.24,0.61,-0.52,10.22
2022:120929.900,120929.9,2.28,0.72,-0.48,0.77,-0.72,10.3
2022:120930.100,120930.1,1.25,-0.45,0.66,0.73,-0.59,10.59
,120930.3,1.85,-0.23,-1.06,0.77,-0.6,10.25
2022:120930.500,120930.5,1.02,0.32,0.77,0.85,-0.46,10.26
,120930.7,0.87,-0.42,-0.9,0.6,-0.3,10.24
,120930.9,0.33,0.46,-0.19,0.92,-0.25,10.19
2022:120931.100,120931.1,-0.11,-0.28,-0.47,0.65,-0.14,10.39
2022:120931.300,120931.3,-0.57,-0.15,-0.43,0.67,0.07,10.02
,120931.9,0.07,-0.96,-1.52,1.12,-0.28,10.55
2022:120932.100,120932.1,-0.59,-0.33,-0.54,0.95,-0.25,10.08
,120932.3,-0.78,0.2,-0.56,1.04,-0.26,10.38
2022:120932.500,120932.5,,,,,,
,120932.7,-0.05,-0.75,0.49,1.19,-0.48,10.71
,120932.9,-0.82,-0.59,-0.6,0.98,-0.34,9.91
,120933.1,0.16,0.42,0.32,1.23,-0.41,10.46
2022:120933.300,120933.3,-1.45,-1,-0.1,0.98,-0.36,10.49
2022:120933.500,120933.5,-0.78,1.07,1.3,0.61,-0.26,9.96
2022:120933.700,120933.7,0.1,-0.97,-0.84,0.69,-0.48,10.64
,120933.9,-0.87,0.63,0.92,0.7,-0.28,9.99
,120934.1,2.78,-6.19,-1.45,1.62,-0.11,12.38
2022:120934.300,120934.3,0.87,-3.47,-4.68,-0.23,-0.8,8.41
,120934.5,-6.06,8.45,6.95,0.56,0,12.12
2022:120934.700,120934.7,5.68,-6.67,-13.2,0.43,-0.26,10.08
,120934.9,0.78,1.6,0.31,0.81,-0.33,10.79
2022:120935.100,120935.1,0.44,-0.48,-0.83,0.67,-0.36,10.1
2022:120935.300,120935.3,0.7,-0.68,-0.19,0.91,-0.42,10.53
2022:120935.500,120935.5,-5.05,4.87,-0.41,0.17,-0.68,9.27
2022:120935.700,120935.7,-1.47,1.3,8.59,0.73,-0.54,10.79
2022:120935.900,120935.9,-3.99,10.78,-0.7,-0.14,-0.28,10.35
2022:120936.100,120936.1,3.38,1.57,-0.25,0.44,-0.05,11.76
2022:120936.500,120936.5,0.75,-1.65,-4.83,0.63,-0.32,9.73
,120936.7,-0.79,1.12,2.85,0.63,-0.26,10.56
2022:120936.900,120936.9,0.76,0.03,-1.17,0.58,-0.23,10.11
2022:120937.100,120937.1,0.84,-0.47,0.37,0.18,-0.22,10.35
2022:120937.300,120937.3,0.19,-0.93,-0.21,0.09,-0.21,10.62
2022:120937.500,120937.5,-0.08,0.69,1.09,-0.08,-0.22,10.26
2022:120937.700,120937.7,0.01,0.4,0.61,-0.21,-0.29,10.39
2022:120937.900,120937.9,-0.16,0.32,0.1,-0.34,-0.12,10.36
,120938.1,0.08,-0.57,0.62,-0.41,-0.09,10.53
2022:120938.300,120938.3,0.26,-0.14,0.11,-0.52,-0.18,10.45
,120938.9,-0.01,0.1,-0.66,-0.64,-0.28,10.18
2022:120939.100,120939.1,0.16,1.3,-0.32,-0.53,-0.23,10.29
2022:120939.300,120939.3,0.69,0.57,-0.63,-0.52,0,10.36
,120939.5,1.12,-2.54,-3.86,-0.32,-0.11,10.36
2022:120939.700,120939.7,0.67,0.51,-1.77,-0.13,-0.31,10.17
,120939.9,0.3,0.41,-2.52,-0.16,-0.16,10.1
2022:120940.300,120940.3,0.74,-0.32,-1.89,0.18,-0.26,10.44
2022:120940.500,120940.5,-0.75,0.34,-0.51,0.21,0.03,10.08
2022:120940.700,120940.7,0.71,-1.21,1.08,0.01,-0.08,11.52
2022:120940.900,120940.9,0.51,-2.05,-0.87,0.18,-0.15,11
2022:120941.200,120941.2,0.49,0.54,1.06,0.33,-0.28,9.79
,120941.8,0.19,-1.67,1.68,0.48,-0.25,10.79
2022:120942.000,120942,1.04,-1.62,-1.61,0.23,-0.56,9.81
,120942.2,2.33,-0.38,-1.18,0.4,-0.61,10.86
,120942.6,11.55,-12.2,-7.34,0.48,-0.63,11.35
2022:120942.800,120942.8,3.29,-6,-1.27,0.23,-0.77,10.57
2022:120943.000,120943,-1.14,0.86,3.38,0.41,-0.5,10.34
2022:120943.200,120943.2,3.32,-3.51,-4.94,0.87,-0.63,11.25
2022:120943.400,120943.4,3.27,-1.35,-1.7,0.71,-0.58,9.72
2022:120943.600,120943.6,1.07,-1.81,6.56,-0.04,-0.72,10.97
2022:120943.800,120943.8,0.42,2.1,-0.18,-0.29,-0.24,10.4
,120944,-0.26,1.07,0.92,-0.37,-0.38,10.42
2022:120944.400,120944.4,1.74,-1.04,-2.15,-0.25,-0.35,10.14
2022:120944.600,120944.6,0.13,-0.16,-0.2,0.54,-0.36,10.6
2022:120944.800,120944.8,0.07,0.3,-0.28,-0.55,-0.4,10.03
2022:120945.000,120945,0.93,-1.55,-1.54,0.49,-0.43,10.76
,120945.2,-0.83,0.01,0.63,-0.21,-0.29,10.24
2022:120945.400,120945.4,-0.48,-0.95,-0.49,-0.09,-0.22,10.53
2022:120945.600,120945.6,-1.15,-0.21,-0.18,-0.24,-0.34,10.28
,120945.8,-0.4,-1.05,-1.39,0.42,-0.35,10.34
,120946.6,-1.06,0.47,0.26,0.87,-0.39,10.37
,120946.8,-0.77,0.28,-0.65,0.57,-0.41,10.33
2022:120947.000,120947,-0.67,0.07,0.24,0.62,-0.22,10.24
2022:120947.200,120947.2,0.06,-0.8,-2.7,0.67,-0.43,10.35
2022:120947.400,120947.4,-1.51,1.06,0.77,0.76,-0.28,10.33
2022:120947.600,120947.6,-0.21,-0.77,-1.08,0.7,-0.19,10.34
,120947.8,-0.39,0.28,0.48,0.75,-0.36,10.4
2022:120948.000,120948,-0.03,-0.92,-0.27,0.76,-0.36,10.33
2022:120948.200,120948.2,0,1.72,0.48,0.81,-0.31,10.43
2022:120948.400,120948.4,1.47,1.54,0.34,0.59,-0.18,10.32
2022:120949.000,120949,2.68,-2.27,-2.59,0.27,-0.54,10.16
2022:120949.200,120949.2,0.51,-1.26,0.52,0.3,-0.49,10.75
2022:120949.400,120949.4,1.82,0.57,-1.98,0.11,-0.6,9.87
2022:120949.600,120949.6,1.52,0.12,0.6,0.41,-0.5,10.94
2022:120949.800,120949.8,1.09,-0.09,-0.52,-0.09,-0.52,9.67
2022:120950.000,120950,0.92,-0.59,0.06,0.26,-0.34,10.61
2022:120950.200,120950.2,0.27,-0.64,-0.27,0.53,-0.31,9.89
2022:120951.600,120951.6,0.28,-0.17,0.36,0.91,-0.36,10.78
,120951.8,0.36,0.51,-0.64,0.54,-0.44,9.6
2022:120952.000,120952,,,,,,
,120952.2,0.33,0.33,-0.98,0.59,-0.39,9.7
,120952.4,0.33,-0.1,-0.92,0.83,-0.31,10.57
2022:120952.600,120952.6,0.19,-0.44,-1.17,0.66,-0.37,10.07
2022:120952.800,120952.8,,,,,,
2022:120953.000,120953,1.28,-0.24,-0.22,0.62,-0.62,9.77
2022:120953.200,120953.2,0.55,-0.55,0.95,0.8,-0.52,10.83
,120953.4,2.28,-0.67,-0.67,0.65,-0.47,9.97
2022:120953.600,120953.6,1.58,0.18,-0.4,0.78,-0.52,10.57
2022:120953.800,120953.8,0.9,-0.39,0.15,0.67,-0.28,10.33
2022:120954.000,120954,1.2,0.22,0.27,0.7,-0.42,10.29
,120954.2,0.61,-0.18,-1.14,0.84,-0.15,10.35
2022:120954.400,120954.4,0.38,-0.13,0.53,0.75,-0.21,10.37
2022:120954.600,120954.6,-0.2,0.16,-1.01,0.91,-0.15,10.19
2022:120954.800,120954.8,-0.56,0.08,0.77,0.5,0,10.2
2022:120955.000,120955,-1.52,-0.28,-1.11,0.61,-0.08,10.45
2022:120955.200,120955.2,-2.82,0.48,-0.24,0.67,0.07,10.22
,120956.2,-2.32,-1.47,-0.28,0.65,0.17,10.45
2022:120956.400,120956.4,,,,,,
2022:120956.600,120956.6,-2.9,-0.05,-0.23,0.74,0.03,10.26
2022:120956.800,120956.8,-2.14,-1.21,-0.85,0.77,-0.03,10.4
2022:120957.000,120957,-1.87,-0.28,-0.82,0.89,-0.11,10.09
,120957.2,-1.64,1.38,1.22,0.6,-0.36,9.82
,120957.4,0.06,-0.33,0.28,0.46,-0.44,10.57
2022:120957.600,120957.6,0.68,-0.19,-0.7,0.47,-0.47,10.11
,120957.8,0.85,-1.85,-0.62,0.56,-0.67,10.55
2022:120958.000,120958,1.49,-0.08,-0.41,0.55,-0.43,10.21
2022:120958.200,120958.2,2.42,-2.09,-1.4,0.42,-0.39,10.62
2022:120958.400,120958.4,1.18,0.13,-0.89,0.47,-0.47,10.27
2022:120958.600,120958.6,1.27,-0.87,0.43,0.54,-0.35,10.75
2022:120958.800,120958.8,1.75,-2.08,-0.9,0.3,-0.71,10.5
2022:120959.000,120959,2.04,0.21,-0.44,0.45,-0.63,10.7
2022:120959.200,120959.2,1.21,-0.02,0.72,0.29,-0.49,10.4
,120959.4,2.2,-1.05,-1.21,0.72,-0.55,10.37
2022:120959.600,120959.6,1.51,0.18,0.43,0.67,-0.5,10.4
2022:120959.800,120959.8,1.47,-0.75,-0.17,0.96,-0.56,10.34
2022:120960.200,120960.2,2.09,-0.32,0.22,1.01,-0.52,10.07
2022:120961.400,120961.4,-3.22,1.84,-4.11,0.75,-0.86,7.33
,120961.6,3.83,-0.81,-4.99,2.16,-0.07,11.53
,120961.8,2.18,2.22,0.72,1.55,-0.72,9.9
2022:120962.000,120962,2.74,-1.15,-2.18,1.5,-0.62,9.62
,120962.2,2.28,-1.82,-1.93,1.69,-0.77,10.25
,120962.4,2.07,1.63,-6.81,1.21,-0.3,10.48
2022:120962.600,120962.6,1.7,-2.45,6.52,1,-0.71,10.57
,120962.8,7.88,-0.79,-9.15,0.99,-0.71,10.27
,120963,3.81,3.12,-1.47,1.01,-0.69,9.64
2022:120963.200,120963.2,5.39,1.62,1.38,1.24,-1.06,10.44
,120963.4,6.01,4.21,0.82,0.21,-1.01,7.84
2022:120963.600,120963.6,7.72,-0.01,-4.6,1.1,-0.91,11.64
,120963.8,10.18,3.31,0.58,0.89,-1.03,9.61
2022:120964.000,120964,9.71,-1.43,-2.9,1.07,-1.23,10.7
,120964.2,11.38,3.88,0.91,0.8,-1.07,9.91
2022:120964.400,120964.4,12.56,1.07,-1.56,0.84,-1.01,10.04
2022:120964.600,120964.6,11.74,6.75,-3.09,0.83,-1,9.82
,120964.8,10.49,-3.4,5.11,-0.32,-1.32,10.42
2022:120965.000,120965,12.14,-1.22,-0.78,1.25,-1.39,10.35
2022:120965.200,120965.2,12.16,2.92,0.82,0.82,-0.72,9.94
2022:120965.400,120965.4,12.94,4.95,5.26,0.66,-0.84,10.67
2022:120965.600,120965.6,15.17,1.15,-1.98,0.72,-1.25,10.21
2022:120966.000,120966,15.48,2.21,-0.17,0.72,-0.99,10.41
2022:120966.200,120966.2,16.72,0.96,-2.23,0.7,-1.21,10.31
2022:120966.400,120966.4,16.35,1.34,-0.7,0.76,-1.16,10.16
,120966.6,17.5,0.26,-2.72,0.58,-1.05,10.58
,120966.8,17.39,-0.33,-2.21,0.64,-1.46,10.05
2022:120967.000,120967,16.4,1.84,-1.88,0.49,-1.5,10.08
,120967.2,15.99,2.14,-0.84,0.49,-1.29,10.53
2022:120967.400,120967.4,17.2,1.04,-1.4,0.34,-1.3,10.38
2022:120967.600,120967.6,15.6,1.45,-0.62,0.34,-1.29,10.22
,120967.8,13.81,2.65,-0.41,0.03,-1.05,10.26
2022:120968.000,120968,12.9,1.61,1.49,0.26,-1.2,10.6
2022:120968.200,120968.2,13.56,-5.16,-5.5,0.31,-1.33,10.44
,120968.4,15.84,0.9,-0.25,0.32,-1.23,11.1
2022:120968.600,120968.6,10.4,0.68,-0.38,0.23,-1.09,10.21
,120968.8,10.62,-0.02,-1.91,0.78,-1.05,10.51
2022:120969.000,120969,9.5,0.15,-4.68,0.28,-1.02,10.09
2022:120969.600,120969.6,4.68,0.1,0.22,0.37,-0.81,10.58
2022:120969.800,120969.8,5.18,0.52,-0.39,0.25,-0.69,10.14
2022:120970.000,120970,2.56,1.28,-0.1,0.19,-0.58,10.19
2022:120970.400,120970.4,2.36,0.03,-1.4,0.27,-0.64,10.35
,120970.6,2.61,-0.87,-0.19,0.35,-0.57,10.47
2022:120970.800,120970.8,-0.26,1.2,0.93,0.14,-0.57,10.42
2022:120971.200,120971.2,1.84,-0.01,0.67,0.17,-0.42,10.52
,120971.4,0.55,-0.17,-1.41,0.12,-0.52,10.25
,120971.6,-0.39,1,1.61,0.16,-0.36,10.61
2022:120971.800,120971.8,0.31,0.76,0.81,0.1,-0.48,10.42
,120972.2,0.09,-0.28,-1.48,0.24,-0.29,10.45
,120972.4,0.65,1,0.61,0.04,-0.32,10.15
,120972.6,0.02,-0.69,-0.85,0.22,-0.33,10.57
,120972.8,0.8,0.9,0.15,0.06,-0.36,10.13
2022:120973.000,120973,0.36,-1.8,-0.23,0.31,-0.25,10.82
,120973.2,0.31,-0.56,-0.51,0.06,-0.57,10.01
2022:120973.400,120973.4,0.17,0.41,-0.48,0.17,-0.36,10.46
,120973.6,0.64,-0.56,-0.71,0.23,-0.44,10.3
,120973.8,0.34,0.04,-0.36,0.08,-0.35,10.16
2022:120974.000,120974,-0.29,-0.4,-0.29,0.15,-0.32,10.57
,120974.2,0.07,-0.36,-0.55,0.18,-0.31,10.3
,120974.4,0.06,-0.36,-0.94,0.09,-0.31,10.22
2022:120974.600,120974.6,-0.52,-0.23,-0.17,0.43,-0.32,10.42
2022:120974.800,120974.8,0.42,-1.31,-0.4,0.42,-0.38,10.42
,120975,-0.01,-0.78,0.08,0.27,-0.5,10.11
2022:120975.500,120975.5,0.14,0.09,0.18,0.64,-0.45,10.46
2022:120975.700,120975.7,0.54,-1.37,-0.38,0.88,-0.42,10.65
2022:120975.900,120975.9,0.31,-0.29,0.73,0.59,-0.47,10.45
2022:120976.100,120976.1,-0.22,0.36,0.4,0.73,-0.43,10.43
2022:120976.300,120976.3,0.83,0.18,-0.11,0.77,-0.4,10.31
2022:120976.500,120976.5,-0.2,-0.77,-0.76,0.92,-0.29,10.59
2022:120976.700,120976.7,0.65,0.61,-0.39,0.79,-0.42,10.2
2022:120976.900,120976.9,-0.24,-0.28,0.24,0.83,-0.33,10.41
2022:120977.100,120977.1,-0.09,-0.07,0.37,0.85,-0.24,10.2
2022:120977.300,120977.3,0.78,-1.29,-0.63,0.89,-0.45,10.66
2022:120977.500,120977.5,-0.12,0.23,0.25,0.86,-0.37,10.04
2022:120977.700,120977.7,1.51,0.04,-0.09,1.31,-0.44,10.37
2022:120977.900,120977.9,1.25,-0.9,0.56,1.1,-0.51,10.47
2022:120978.300,120978.3,0.46,0.58,0.27,0.95,-0.44,10.15
,120978.5,0.36,-0.49,0.65,1.01,-0.32,10.44
2022:120978.700,120978.7,0.36,0.06,0.76,1.03,-0.35,10.35
2022:120979.000,120979,0.3,-0.78,-0.88,0.95,-0.44,10.31
2022:120979.400,120979.4,-1.27,3.68,-5.32,1.18,-0.76,9.08
2022:120979.600,120979.6,1.41,-1.19,-1.29,0.89,-0.15,10.69
2022:120979.800,120979.8,3,-0.04,-7.33,1.54,-0.27,10.62
2022:120980.000,120980,1.25,-1.25,-0.54,0.69,-0.59,10.56
,120980.4,-0.71,2.57,1.49,0.51,-0.46,10.39
2022:120980.600,120980.6,-0.67,-1.02,-0.74,0.26,-0.39,9.92
2022:120980.800,120980.8,1.45,0.18,-1.75,0.55,-0.28,10.71
2022:120981.400,120981.6,0.37,-1.89,-0.11,0.36,-0.42,10.71
2022:120981.600,120982.2,2,-2.25,-5.65,0.3,-0.73,10.59
,120982.4,-1.03,3.84,0.12,0.09,-0.4,9.34
2022:120982.600,120982.6,1.6,-1.79,-2.12,0.32,-0.29,11.37
2022:120982.800,120982.8,0.27,2.41,2.27,-0.01,-0.39,9.53
2022:120983.000,120983,2.01,-1.75,-1.23,0.28,-0.35,11.55
,120983.2,-0.6,2.56,3.25,-0.02,-0.23,9.59
,120983.4,1.32,-1.48,-0.88,0.03,-0.37,10.96
2022:120983.600,120983.6,0.47,-1.25,-0.25,0.1,-0.42,10.1
,120983.8,1.07,-0.77,-1.46,0.17,-0.52,10.43
2022:120984.000,120984,1.34,-0.49,0.26,-0.02,-0.52,10.23
2022:120984.300,120984.3,0.41,0.5,-0.21,0.18,-0.5,10.25
,120984.6,0.18,0.88,0.39,0,-0.28,10.52
,120984.8,0.83,-1.3,-1.11,0.15,-0.39,10.55
2022:120985.000,120985,0.11,-0.76,-0.96,0.01,-0.18,10.52
2022:120985.300,120985.3,0.01,-0.59,0.38,0.11,-0.41,10.3
2022:120985.900,120985.9,1.01,-2.58,-1.1,0.89,-0.43,10.54
,120986.1,0.15,0.14,0.31,0.54,-0.38,10.07
2022:120986.400,120986.4,0.88,-0.17,-0.43,0.96,-0.51,10.96
,120986.6,-0.44,-0.16,0.52,0.64,-0.33,9.7
,120986.8,0.53,0.51,-1,,,
2022:120987.000,120987,1,-0.68,0.18,1.13,-0.57,11.49
2022:120987.300,120987.3,0.48,2.91,-1.11,0.89,-0.41,10.39
,120987.7,-0.04,0,0.64,0.77,-0.18,10.29
2022:120987.900,120987.9,1.64,0.43,0.2,0.83,-0.36,10.24
2022:120988.100,120988.1,0.25,-3.34,-1.22,0.88,-0.38,10.76
,120988.3,-0.35,3.11,1.66,0.74,-0.36,9.57
,120988.5,0.52,-1.88,-1.21,0.85,-0.33,10.97
2022:120988.700,120988.7,0.17,0,0.15,0.8,-0.13,10
2022:120988.900,120988.9,-0.24,1.2,1.15,0.72,-0.2,9.92
2022:120989.100,120989.8,0.59,-0.59,-0.42,0.83,-0.26,10.38
2022:120989.800,120990,0.45,-2.09,-2.07,0.88,-0.25,10.53
2022:120990.000,120990.9,0.69,-2.46,-0.62,0.86,-0.38,10.64
2022:120990.900,120991.1,0.86,1.39,0.7,0.8,-0.49,10.2
2022:120991.400,120991.4,0.43,-1.76,-2.24,0.83,-0.25,10.6
2022:120991.700,120991.7,-0.25,-0.17,-1.83,0.99,-0.3,10.78
2022:120992.100,120992.1,-1.13,0.32,-1.42,0.62,-0.23,9.63
2022:120992.300,120992.3,-0.69,-2.48,-5.21,0.84,-0.15,10.4
2022:120992.500,120992.5,-1.13,2.18,0.27,0.92,0.04,10.25
2022:120992.700,120992.7,-0.55,-3.28,-2,0.64,-0.14,9.92
,120992.9,-1,1.23,1.02,0.95,0.14,11.13
2022:120993.100,120993.1,-0.96,-1.99,1.29,0.68,-0.04,9.72
,120993.3,-0.21,-0.2,-1.25,0.9,0.03,10.44
,120993.5,0.18,-2.29,-2.69,0.88,-0.33,10.2
2022:120993.700,120993.7,0.04,0.46,-1.43,0.96,-0.3,9.89
,120993.9,0.14,0.72,0.27,0.81,-0.3,10.27
2022:120994.100,120994.1,1.27,-0.07,-0.32,0.93,-0.53,10.6
2022:120994.400,120994.4,1.16,-0.7,-0.93,0.71,-0.5,9.65
2022:120995.400,120995.4,0.81,-0.95,-1.22,0.95,-0.66,10.88
2022:120995.600,120995.6,0.82,-0.13,0.7,0.73,-0.68,9.68
2022:120995.800,120995.8,1.6,0.01,0.2,0.82,-0.76,10.22
2022:120996.100,120996.1,2.07,-1.28,0.64,0.97,-0.76,10.86
,120996.4,3.11,-0.87,-2.05,0.84,-0.78,9.92
2022:120996.600,120996.6,2.46,0.15,0.42,,,
,120996.8,1.98,-1.96,-0.9,0.87,-0.91,10.79
,120997,0.19,2.23,-0.22,0.74,-0.67,9.5
2022:120997.300,120997.3,,,,,,
2022:120997.900,120997.9,0.59,0.01,-0.59,0.95,-0.41,10.58
2022:120998.100,120998.1,0.14,-1.21,0,0.75,-0.34,10.23
,120998.3,0.35,1.31,0.84,0.74,-0.46,10.05
2022:120998.500,120998.5,0.3,0.07,0.27,0.8,-0.41,10.4
2022:120998.700,120998.7,1.44,-0.32,-1.88,0.82,-0.45,10
,120998.9,0.1,0.5,-0.13,0.75,-0.31,10.16
2022:120999.100,120999.1,-0.44,-1.67,-0.37,0.9,-0.27,10.94
2022:120999.400,120999.4,-0.18,1.06,-0.06,0.75,-0.12,9.57
2022:120999.600,120999.6,0.39,-1.27,-0.27,0.95,-0.36,11.11
,120999.8,0.13,-0.37,-0.09,0.78,-0.25,10.38
2022:121000.500,121000.5,0.32,-0.11,-0.75,0.8,-0.29,10.02
2022:121000.700,121000.7,-0.18,-0.23,-0.27,0.77,-0.25,10.43
2022:121000.900,121000.9,0.05,-1.31,-0.65,0.79,-0.25,10.52
2022:121001.100,121001.1,0.28,-1.15,-0.67,0.84,-0.42,10.46
2022:121001.400,121001.4,-0.36,0.03,1.11,0.77,-0.41,10.36
,121001.6,0.22,0.15,0.77,0.76,-0.43,10.02
,121001.8,1.03,-0.07,-0.2,1.22,-0.37,10.9
2022:121002.400,121002.4,0.8,-1.77,-1.32,1.36,-0.66,9.78
2022:121002.600,121002.6,0.44,0.96,-0.4,1.46,-0.34,10.55
2022:121002.800,121002.8,0.6,-0.24,-0.51,1.4,-0.34,10.26
2022:121003.000,121003,1.11,-1.34,-1.24,1.63,-0.55,10.6
2022:121003.200,121003.2,0.86,1.38,0.42,1.5,-0.55,9.89
,121003.4,-0.12,-0.26,1.01,1.41,-0.22,10.55
2022:121003.600,121003.6,1.82,-1.34,-1.71,1.47,-0.51,10.18
,121003.8,1.2,-0.6,-1.92,1.5,-0.37,10.17
2022:121004.000,121004,0.99,-0.46,-1.32,1.53,-0.22,10.53
,121004.2,0.85,-0.7,-1.05,1.37,-0.26,10.02
2022:121004.400,121004.4,-0.5,0.75,2.02,1.29,-0.13,10.52
2022:121004.800,121004.8,0.94,-0.65,-1.37,1.52,-0.29,10.34
2022:121005.000,121005,-0.35,1.23,1.27,1.33,-0.18,10.26
2022:121005.200,121005.2,1.01,-1.33,-0.81,1.37,-0.12,10
2022:121005.600,121005.6,-0.13,-0.42,0.06,1.6,-0.17,10.42
2022:121005.800,121005.8,0.74,-0.98,-1.81,1.51,-0.1,9.92
2022:121006.000,121006,-0.16,-1.26,0.79,1.59,-0.13,10.58
2022:121006.200,121006.2,0.01,0.12,-1.23,1.84,-0.38,9.85
2022:121006.400,121006.4,-1.14,-0.43,1.8,1.82,-0.16,10.54
,121006.6,0.45,-1.29,-1.37,2,-0.31,10.35
,121006.8,-0.56,-0.34,0.16,2.01,-0.27,9.96
2022:121007.000,121007,0.16,-0.84,-1.28,2.12,-0.27,10.14
,121007.2,-0.25,-1.26,-1.06,2.21,0.04,10.13
2022:121007.400,121007.4,-0.97,-0.77,0.02,1.96,-0.1,10.53
,121007.6,-1.32,0.27,-0.34,2.14,-0.2,10.11
2022:121007.800,121007.8,-2.14,0,1.34,1.95,0.06,10.21
2022:121008.000,121008,-1.45,-0.22,-0.27,1.84,-0.16,9.86
2022:121008.200,121008.2,-1.76,-0.45,-0.17,2.26,-0.21,10.58
2022:121008.400,121008.4,-3.54,-0.52,-0.15,1.93,0.24,10.41
,121008.6,-4.29,0.22,-0.22,1.23,0.23,9.91
,121008.8,-4.52,-0.37,0.03,1.28,0.13,10.41
,121009,-6.34,0.88,1.07,0.86,0.38,10.14
,121009.2,-7.16,-0.11,0.18,0.88,0.52,10.24
2022:121009.400,121009.4,-10.27,-1.74,-0.39,0.85,0.77,10.46
,121010,-11.32,-1.94,-0.38,1.03,0.66,10.38
2022:121010.300,121010.3,-14.78,-2.66,-0.62,0.99,1.18,10.56
2022:121011.100,121011.1,-17.25,-0.98,-1.2,1.06,1.16,10.22
2022:121011.400,121011.4,-17.55,-2.55,-1.54,1.21,1.19,10.3
,121011.6,-18.77,-0.68,0.46,1.04,1.03,10.03
,121011.8,-18.76,-1.74,-0.63,1.19,1.31,10.42
2022:121012.000,121012,-18.43,-3.3,-0.32,1.12,1.18,10.19
2022:121012.200,121012.2,-18.75,-3.19,0.65,1.11,1.1,10.43
,121012.4,-18.84,-2.27,-0.33,1.02,1.08,10.09
2022:121012.600,121012.6,-18.27,-3.26,-0.45,1.08,1.12,10.44
2022:121012.800,121012.8,-18.07,-2.28,-0.67,1.13,0.9,10.07
2022:121013.000,121013,-17.16,-2.62,-0.38,1.15,1.03,10.49
2022:121013.200,121013.2,-16.88,-3.08,-0.2,0.97,0.73,10.15
2022:121013.400,121013.4,-15.33,-2.65,-0.69,1.04,0.43,10.18
2022:121013.600,121013.6,-14.34,-1.76,-0.58,1.14,0.27,10.28
2022:121013.800,121013.8,-12.46,-2.16,-0.13,1.08,0.15,10.36
,121014,-11.18,-1.64,-0.26,1.01,0.13,10.25
2022:121014.200,121014.2,-9.76,-1.82,-0.73,0.97,0.11,10.25
,121014.4,-8.17,-2.31,-0.24,1.05,-0.06,10.48
2022:121014.600,121014.6,-7.4,-1.24,-0.42,0.99,-0.07,10.17
,121014.8,-4.16,-0.26,-0.1,0.92,-0.19,10.27
2022:121015.400,121015.4,-3.14,-1.29,-0.51,0.94,-0.03,10.42
2022:121015.600,121015.6,-2.75,-1.05,-0.28,0.83,-0.35,10.29
2022:121015.800,121015.8,-2.15,-0.3,-0.05,0.8,-0.27,10.26
2022:121016.000,121016,-1.64,-0.85,-0.19,0.84,-0.31,10.29
2022:121016.200,121016.2,-0.41,-0.94,-0.39,0.88,-0.53,10.33
2022:121016.400,121016.4,0.73,-0.53,-0.44,0.76,-0.33,10.26
2022:121016.700,121016.7,0.87,-0.56,-0.39,0.78,-0.4,10.34
2022:121017.300,121017.3,0.78,-0.61,-0.48,0.76,-0.35,10.33
2022:121017.500,121017.5,0.63,-0.22,-0.22,0.74,-0.3,10.26
2022:121017.700,121017.7,0.92,-0.78,-0.72,0.53,-0.43,10.47
,121018.3,0.4,0,0.16,0.29,-0.35,10.28
2022:121018.500,121018.5,1,-0.47,-0.21,0.28,-0.44,10.34
2022:121018.700,121018.7,1.54,-0.71,-0.39,0.18,-0.56,10.19
,121018.9,1.68,-0.42,-0.35,0.08,-0.45,10.5
,121019.1,1.43,-0.44,-0.48,0.04,-0.39,10.33
2022:121019.300,121019.3,1.42,-0.54,-0.3,0.07,-0.45,10.48
2022:121019.500,121019.5,0.87,-0.04,0.18,-0.1,-0.39,10.25
2022:121019.700,121019.7,0.75,-0.06,-0.35,0.05,-0.4,10.32
,121019.9,0.92,-0.33,0.01,0.11,-0.42,10.37
2022:121020.100,121020.1,0.49,0.07,-0.04,0.22,-0.46,10.31
2022:121020.300,121020.3,0.85,-0.24,-0.02,0.36,-0.31,10.41
2022:121020.500,121020.5,0.51,0,-0.1,0.43,-0.22,10.53
2022:121020.900,121020.9,-0.36,0,-0.26,0.31,-0.27,10.32
2022:121021.100,121021.1,-0.46,-0.15,-0.36,0.44,-0.25,10.34
2022:121021.300,121021.3,-0.98,-0.57,0.2,0.47,-0.27,10.46
2022:121021.500,121021.5,-0.71,-0.59,-0.08,0.26,-0.41,10.07
2022:121021.700,121021.7,-0.98,0.7,-0.27,0.54,-0.34,10.46
2022:121021.900,121021.9,-0.77,-0.37,-0.49,0.33,-0.21,10.27
2022:121022.100,121022.1,-0.67,-0.25,-0.65,0.59,-0.33,10.54
,121022.3,-0.45,0.46,0.42,0.4,-0.2,10.3
2022:121022.500,121022.5,-0.19,-1.24,-0.2,0.35,-0.29,10.54
2022:121022.700,121022.7,-1.11,0.28,0.42,0.46,-0.43,10.21
2022:121022.900,121022.9,-1.37,0.97,0.83,0.24,-0.02,10.3
,121023.5,-1.69,-0.6,-0.54,0.31,0,10.62
,121023.7,-2.29,0.8,-0.45,0.25,-0.05,9.96
2022:121023.900,121023.9,-2.95,-0.87,-1.13,0.09,0.22,10.56
2022:121024.100,121024.1,-4.15,0.73,-1.59,0.13,0.12,9.82
2022:121024.300,121024.3,-4.03,-0.54,-1.41,0.41,0.16,11.08
,121024.5,-6.31,-2.64,0.81,0.38,0.55,10.42
2022:121025.100,121025.1,-7.4,-1.16,1.91,0.12,0.23,10.3
2022:121025.300,121025.3,-6.76,0.87,0.43,0.37,0.59,10.51
,121025.5,,,,,,
2022:121026.300,121026.3,,,,,,
,121026.5,-2.18,-0.75,0.2,0.33,-0.33,10.13
2022:121026.700,121026.7,-1.1,0.36,0.25,0.29,-0.16,10.07
2022:121027.500,121027.5,-0.61,-0.99,-0.74,0.25,-0.14,10.17
,121027.9,-1.33,0.05,-0.57,0.33,-0.32,10.36
2022:121028.100,121028.1,-0.83,0.11,-0.64,0.31,-0.06,10.13
,121028.3,-0.82,-1.01,-0.14,0.3,-0.21,10.52
2022:121028.500,121028.5,,,,,,
2022:121028.700,121028.9,-1.06,-0.85,-0.55,0.2,-0.11,10.53
2022:121029.100,121029.1,-1.09,-0.39,-0.27,0.38,-0.21,10.41
2022:121029.300,121029.3,-0.75,-0.48,-0.36,0.34,-0.23,10.57
,121029.5,-0.76,-0.52,-0.41,0.3,-0.19,9.88
2022:121029.700,121029.7,-0.63,-0.78,-0.52,0.37,-0.24,10.47
2022:121030.100,121030.1,-0.89,0.16,-0.31,0.46,-0.19,10.32
,121030.3,-0.55,-0.26,-0.32,0.34,-0.26,10.03
2022:121030.700,121030.7,-0.34,-0.39,-0.48,0.64,-0.28,10.64
2022:121030.900,121030.9,0.32,-0.48,-0.7,0.58,-0.22,10.52
,121031.9,0.57,-0.43,0.1,0.56,-0.26,10.01
2022:121032.100,121032.1,0.1,-0.01,-0.08,0.72,-0.22,10.19
2022:121032.500,121032.5,0.58,-1.24,-0.66,0.79,-0.33,10.63
2022:121032.700,121032.7,,,,,,
,121032.9,0.15,-0.37,0,0.82,-0.3,10.81
2022:121033.100,121033.1,0.39,-0.08,0.06,0.71,-0.27,10.16
,121033.3,,,,,,
2022:121034.100,121034.1,0.53,-0.28,-0.22,0.89,-0.2,10.34
2022:121034.300,121034.3,0.68,0.33,-0.42,0.73,-0.34,10.1
2022:121034.700,121034.7,0.74,-1.02,-0.66,0.75,-0.29,10.33
2022:121035.200,121035.2,0.89,-0.17,-0.72,0.74,-0.32,10.13
2022:121035.400,121035.4,1.2,-0.64,-0.8,0.78,-0.37,10.38
,121035.6,2,-0.36,-0.34,0.85,-0.52,10.47
2022:121035.800,121035.8,3.93,-1.43,-2.28,0.71,-0.71,10.27
2022:121036.000,121036,3.62,0.76,0.84,0.97,-0.66,10.28
2022:121036.200,121036.2,5.37,-0.18,0.16,0.28,-0.75,10.35
2022:121036.400,121036.4,6.82,-0.42,-0.6,0.85,-0.83,10.5
2022:121036.600,121036.6,8.38,-0.93,0.67,0.51,-0.98,10.56
,121036.8,8.99,1.17,-1.14,0.94,-1.1,10.15
,121037,8.82,2.02,0.97,1,-0.76,10.16
2022:121037.200,121037.2,10.26,0.82,-0.03,0.92,-0.82,10.32
2022:121037.400,121037.4,11.14,0.64,-0.02,0.75,-0.77,10.25
,121037.6,10.93,0.82,-0.6,0.83,-0.67,10.28
2022:121037.800,121037.8,11,1.2,-0.36,0.95,-0.73,10.1
,121038,10.4,1.48,-0.9,1.14,-0.47,10.54
2022:121038.200,121038.2,,,,,,
2022:121038.400,121038.4,10.57,0.04,-0.95,1.56,-0.48,10.28
,121038.6,8.8,2.29,-0.83,1.81,-0.33,9.99
2022:121038.800,121038.8,8.27,0.28,2.2,0.79,-0.54,10.72
,121039,,,,,,
2022:121039.400,121039.4,9.77,0.5,-0.05,0.95,-0.51,10.35
,121039.6,10.88,0.84,-0.29,0.72,-0.52,10.16
2022:121039.800,121039.8,,,,,,
2022:121040.000,121040,11.73,0.46,-0.01,0.42,-0.38,10.4
2022:121040.200,121040.2,13.71,-0.07,-0.68,,,
2022:121040.600,121040.6,14.49,0.44,-0.11,0.39,-0.79,10.39
2022:121040.800,121040.8,15.01,0.51,-0.87,0.16,-0.59,10.3
2022:121041.000,121041,,,,,,
,121041.2,18.99,0.28,-0.47,0.44,-0.96,10.43
,121042,20.03,-0.02,-1.67,0.37,-1.14,10.4
2022:121042.200,121042.2,17.91,1.41,-0.21,0.1,-1.06,10.18
2022:121042.400,121042.4,17.51,1.54,0.37,0.06,-0.86,10.59
,121042.6,18.21,1.27,-0.66,-0.11,-1.06,10.16
2022:121042.800,121042.8,15.96,0.92,-0.09,-0.15,-0.94,10.72
,121043,15.36,1.23,-0.7,-0.05,-0.86,9.99
2022:121043.200,121043.2,,,,,,
2022:121043.400,121043.4,12.4,-1.22,-1.51,-0.04,-0.94,10.11
2022:121043.600,121043.6,12.02,1.07,-0.67,0.33,-1.17,9.85
2022:121043.900,121043.9,10.74,0.97,-0.89,0.29,-0.93,10.06
2022:121044.300,121044.3,9.78,0.12,0.19,0.15,-0.87,10.63
,121044.5,9.52,0.15,-1.29,0.19,-1.01,10.25
2022:121044.700,121044.7,8.02,0.65,-0.34,0.2,-0.83,10.33
,121044.9,7.16,-0.37,-0.34,0,-0.69,10.41
,121045.1,6.68,-0.69,-0.6,0.07,-0.9,10.56
2022:121045.500,121045.5,4.45,-0.5,-0.76,0.02,-0.63,10.44
2022:121045.700,121045.7,2.51,0.33,0.01,0.13,-0.53,10.6
2022:121045.900,121045.9,0.33,-0.47,0.02,0.06,-0.54,10.16
,121046.5,1.05,-0.8,-0.53,0.27,-0.66,10.45
2022:121046.700,121046.7,0.36,-0.29,-0.24,0.23,-0.62,10.46
2022:121046.900,121046.9,1.25,-0.91,-1.11,0.29,-0.61,10.17
2022:121047.100,121047.1,,,,,,
2022:121047.300,121047.3,0.47,0.57,0.55,0.69,-0.52,10.1
2022:121047.500,121047.5,,,,,,
,121047.7,1.16,-0.16,0,0.76,-0.6,10.28
,121047.9,0.57,-0.14,-0.42,0.81,-0.52,10.45
2022:121048.100,121048.1,0.85,0.31,-0.11,0.76,-0.52,10.22
,121048.3,1.03,-0.47,-0.27,0.83,-0.64,10.55
2022:121048.500,121048.5,0.58,0.59,-0.32,0.73,-0.59,10.49
2022:121048.700,121048.7,0.9,-0.07,-0.77,0.78,-0.43,10.31
2022:121048.900,121048.9,,,,,,
2022:121049.100,121049.1,0.64,-0.11,-0.42,0.81,-0.57,10.4
2022:121049.300,121049.3,0.7,0.28,-0.15,0.82,-0.49,10.2
,121049.5,0.78,-0.49,0.38,0.86,-0.51,10.54
2022:121049.700,121049.7,0.74,-0.81,-0.11,0.8,-0.51,10.26
,121049.9,1,-0.6,-0.58,0.45,-0.62,10.02
2022:121050.100,121050.1,1.55,-0.77,-0.45,0.64,-0.77,10.65
,121050.3,0.92,-0.62,0.16,0.63,-0.67,10.25
2022:121050.500,121050.5,2.68,-0.23,-0.81,0.69,-0.77,10.49
,121050.7,1.98,-0.3,-1.18,0.43,-0.64,10.14
,121050.9,1.74,-0.89,-0.53,0.51,-0.54,10.47
2022:121051.100,121051.1,1.18,0.2,-1.21,0.38,-0.59,10.16
2022:121051.300,121051.3,1.35,-0.13,0.05,0.47,-0.58,10.33
,121051.5,1.59,-0.83,-0.98,0.43,-0.68,10.21
2022:121051.700,121051.7,0.9,-0.03,-0.02,0.38,-0.59,10.07
2022:121052.000,121052,0.19,0.27,0.35,0.36,-0.5,10.19
,121052.3,0.14,-0.16,-0.25,0.46,-0.5,10.45
2022:121052.600,121052.6,-0.03,0.34,0.15,0.43,-0.63,9.89
2022:121052.800,121052.8,-0.05,-0.14,0.34,0.86,-0.53,10.57
,121053,0.1,-0.66,0.05,0.76,-0.55,10.23
,121053.2,-0.15,-0.81,0.11,0.76,-0.52,10.69
2022:121053.400,121053.4,-0.06,0.03,0.11,0.69,-0.52,9.97
,121053.6,-0.12,-1.48,-1.04,0.72,-0.49,10.23
2022:121053.800,121053.8,0.01,0.16,0.18,0.8,-0.65,9.97
,121054,1.39,-0.54,-0.65,0.96,-0.8,10.51
2022:121054.200,121054.2,2.03,-0.35,-0.6,0.98,-0.93,10.16
,121054.4,1.72,-0.19,-0.31,1.28,-0.73,10.58
2022:121054.600,121054.6,2.4,-0.06,-1.16,1.47,-0.73,10.12
2022:121054.800,121054.8,1.45,0.44,0.04,1.85,-0.65,10.52
2022:121055.000,121055,0.16,0.63,1.39,1.05,-0.69,10.08
,121055.2,1.77,0.03,-0.28,1.09,-0.54,10.25
2022:121055.400,121055.4,1.07,-0.13,-0.37,1.01,-0.42,10.27
,121055.6,0.85,-0.46,-0.4,1.07,-0.38,10.26
2022:121055.800,121055.8,0.08,-0.41,-0.61,1.18,-0.36,10.33
2022:121056.000,121056,-0.68,-0.33,-0.63,1.04,-0.34,9.97
2022:121056.300,121056.3,-1.42,-0.27,-0.04,1.51,-0.18,10.44
,121056.5,-2.29,-0.71,-0.51,1.33,-0.12,10.23
2022:121056.700,121056.7,-3.68,-0.18,0.14,1.27,0.09,10.35
2022:121056.900,121056.9,-4.09,-0.53,-0.7,1.62,0.02,10.11
,121057.1,-4.94,-0.44,-0.04,1.62,0.03,10.56
2022:121057.300,121057.3,-6.05,-0.08,-0.5,1.43,0.2,9.91
,121057.5,-5.62,-1,-0.1,1.61,-0.16,10.39
2022:121057.700,121057.7,-5.45,-0.89,-0.82,1.95,-0.24,10.06
2022:121057.900,121057.9,-4.66,-0.41,0.75,1.83,-0.46,10.27
2022:121058.100,121058.1,-3.57,-1.12,-0.49,1.63,-0.45,9.84
2022:121058.300,121058.3,-3.7,-0.29,0.19,1.76,-0.29,10.43
2022:121058.500,121058.5,-1.39,-1.09,-0.41,1.75,-0.52,10.44
,121058.7,-0.95,-0.53,-0.63,1.83,-0.44,10.08
,121058.9,-0.84,-0.45,0.48,1.76,-0.36,10.38
,121059.1,-0.81,-0.28,0.3,0.55,-0.32,10.25
2022:121059.300,121059.3,-0.42,-0.96,-0.82,0.87,-0.34,10.42
2022:121059.500,121059.5,-0.25,-0.1,-0.3,0.87,-0.4,10.21
2022:121059.700,121059.7,-0.38,-0.47,-0.52,0.8,-0.39,10.26
2022:121059.900,121059.9,-0.59,0.1,-0.15,0.75,-0.47,10.28
2022:121060.100,121060.1,-0.7,0,-0.26,0.78,-0.46,10.29
2022:121060.300,121060.3,-0.65,-0.38,-0.36,0.8,-0.45,10.3
2022:121060.500,121060.5,-0.72,-0.44,0.11,0.81,-0.49,10.34
2022:121060.700,121060.7,-0.73,-0.56,-0.58,0.76,-0.37,10.31
,121060.9,-0.5,-0.86,-0.11,0.81,-0.42,10.43
2022:121061.100,121061.1,-0.26,-0.1,-0.18,0.73,-0.58,10.09
,121061.3,-0.02,-0.85,-0.41,0.78,-0.35,10.45
2022:121061.500,121061.5,0.23,-0.81,-0.96,0.72,-0.44,10.22
2022:121061.700,121061.7,0.09,-0.2,-0.35,0.73,-0.39,10.3
2022:121061.900,121061.9,0.02,-0.03,-0.61,0.74,-0.42,10.31
2022:121062.100,121062.1,0.21,-0.68,-0.54,0.78,-0.36,10.36
2022:121062.400,121062.4,0.67,-0.79,-0.76,0.76,-0.43,10.16
,121062.6,0.23,-1.08,-0.84,0.56,-0.46,10.4
,121062.8,-0.22,-0.25,-0.64,0.47,-0.44,10.25
2022:121063.000,121063,-0.43,-0.78,-0.59,0.43,-0.38,10.48
,121063.2,-0.32,-0.88,-0.32,0.32,-0.39,10.32
2022:121063.400,121063.4,-0.7,-0.38,-0.22,0.17,-0.58,10.38
2022:121063.600,121063.6,-0.34,-0.96,-0.3,0.03,-0.46,10.47
2022:121063.800,121063.8,-0.64,-0.91,-0.02,0,-0.46,10.37
,121064,-0.96,-0.28,-0.17,-0.08,-0.47,10.22
2022:121064.200,121064.2,-1.57,-0.91,-0.92,-0.16,-0.3,10.42
2022:121064.400,121064.4,-2.2,-0.94,-0.1,0,-0.38,10.54
2022:121064.600,121064.6,-2.17,-0.38,-0.15,-0.12,-0.53,10.2
,121064.8,-2.47,-0.68,-0.35,-0.04,-0.37,10.55
2022:121065.000,121065,-2.37,-0.06,-0.62,-0.17,-0.46,10.13
2022:121065.200,121065.2,-2.26,-0.19,-0.77,0.11,-0.44,10.45
2022:121065.400,121065.4,-2.48,-0.2,-0.59,0.24,-0.16,10.24
2022:121066.000,121066,-0.34,0.17,-0.01,0.76,-0.38,10.16
,121067.7,-0.2,-0.51,-0.44,0.75,-0.38,10.49
,121067.9,-0.19,0.74,0.93,0.73,-0.29,10
2022:121068.100,121068.1,0.08,-0.86,-1.2,0.75,-0.29,10.67
,121068.3,-0.41,0.64,-0.37,0.71,-0.33,9.94
,121068.5,-0.38,0.08,-0.71,0.91,-0.26,10.64
2022:121068.700,121068.7,-0.1,0.34,-0.69,0.65,-0.38,9.59
,121068.9,0.33,-0.14,-0.48,1.08,-0.46,10.81
2022:121069.100,121069.1,-0.03,-1.01,-0.76,1.08,-0.15,10.63
2022:121069.400,121069.4,-0.15,-0.03,0.31,1.29,-0.34,10.26
,121069.6,-0.79,0.68,0.02,1.44,-0.13,10.09
,121069.8,-0.4,-0.66,-0.13,1.41,-0.09,10.25
2022:121070.000,121070,-0.82,-0.33,0.33,2.1,-0.26,9.9
2022:121070.600,121070.6,-0.3,-1.19,0.09,2.23,-0.34,10.58
2022:121070.800,121070.8,-0.92,-0.78,-0.31,2.42,-0.13,9.88
2022:121071.000,121071,-0.6,-0.35,0.31,2.26,-0.26,10.39
2022:121071.200,121071.2,,,,2.24,-0.33,9.82
,121071.6,-0.19,-0.38,-0.63,2.53,-0.21,10.11
,121071.8,0.14,-0.23,-0.17,2.59,-0.34,10.21
2022:121072.000,121072,0.24,-0.19,-0.17,2.31,-0.41,10.04
,121072.2,0.05,-0.37,-0.33,2.33,-0.35,10.2
2022:121072.400,121072.4,0.4,-0.54,-0.23,2.49,-0.43,10.08
2022:121072.600,121072.6,2.57,-2.01,-0.69,0.54,-0.39,10.17
2022:121073.400,121073.4,0.82,-0.87,-1.36,0.97,-0.22,10.24
2022:121073.600,121073.6,-0.45,-0.13,0.51,0.74,-0.39,10.26
2022:121073.800,121073.8,0.43,-0.32,-0.63,0.98,-0.27,10.4
2022:121074.000,121074,0.23,-0.09,0.11,0.83,-0.4,10.24
,121074.2,0.33,-0.33,-0.16,0.89,-0.42,10.29
,121075,0.5,-0.46,-0.39,1,-0.4,10.31
2022:121075.200,121075.2,0.3,-0.43,-0.15,0.9,-0.4,10.32
2022:121075.400,121075.4,0.36,-0.32,-0.24,0.92,-0.34,10.3
2022:121076.600,121076.6,0.38,-0.17,-0.29,0.92,-0.42,10.31
2022:121076.800,121076.8,0.3,-0.2,-0.18,0.91,-0.4,10.31
2022:121077.000,121077,0.41,-0.34,-0.3,0.95,-0.43,10.32
2022:121077.200,121077.2,0.35,-0.5,-0.33,0.92,-0.43,10.31
,121077.4,0.38,-0.46,-0.32,0.94,-0.36,10.29
2022:121077.800,121077.8,0.65,-0.56,-0.49,0.96,-0.37,10.31
,121078,0.53,-0.41,-0.34,0.95,-0.28,10.3
2022:121078.400,121078.4,0.37,-0.14,-0.23,0.91,-0.37,10.29
2022:121078.600,121078.6,0.41,-0.13,-0.28,0.94,-0.37,10.37
,121078.8,0.35,-0.39,-0.19,0.94,-0.44,10.28
2022:121079.800,121079.8,,,,,,
,121080,0.4,-0.63,-0.37,0.93,-0.36,10.32
2022:121080.200,121080.2,0.37,-0.34,-0.3,0.91,-0.35,10.28
2022:121080.400,121080.4,,,,,,
,121080.6,0.34,-0.22,-0.25,0.92,-0.33,10.28
2022:121080.800,121080.8,0.45,-0.32,-0.41,0.92,-0.32,10.29
,121081,0.31,-0.31,-0.28,0.88,-0.41,10.3
2022:121082.000,121082,0.36,-0.38,-0.15,0.76,-0.39,10.35
,121082.3,0.44,-0.54,-0.13,0.7,-0.4,10.34
2022:121082.700,121082.7,0.36,-0.07,0.05,0.78,-0.32,10.23
,121082.9,1.58,-1.06,-1.73,0.78,-0.28,10.88
2022:121084.100,121084.1,,,,,,
2022:121084.300,121084.3,0.29,-0.12,-0.15,0.59,-0.29,10.71
2022:121084.500,121084.5,0.98,-0.67,-0.14,0.52,-0.45,10.04
2022:121084.700,121084.7,1.22,-0.17,-0.01,0.62,-0.53,10.52
2022:121084.900,121084.9,0.97,-0.52,-0.12,0.51,-0.27,10.42
2022:121085.100,121085.1,,,,,,
2022:121085.400,121085.4,1.35,-0.22,-0.73,0.63,-0.45,10.37
2022:121085.600,121085.6,0.95,0.33,0.11,0.77,-0.39,10.36
2022:121085.800,121085.8,1.18,0.08,-0.22,0.71,-0.34,10.29
2022:121086.000,121086,,,,,,
,121086.3,-2.26,3.13,-2.53,1.49,-0.25,10.22
,121086.5,1.71,-3.28,5.58,0.75,-0.2,11.15
2022:121086.800,121086.8,-0.07,-0.26,0.99,1,-0.21,10.07
2022:121087.200,121087.2,,,,,,
,121087.4,0.77,0.04,0.01,1.03,-0.28,10.43
2022:121087.600,121087.6,1.36,-0.26,-1.22,1,-0.24,10.09
2022:121087.800,121087.8,1.03,-0.5,1.69,1.38,-0.1,10.93
,121088,1.16,-0.49,-0.27,0.8,-0.11,9.62
,121088.2,1.32,1.13,-1.02,0.65,-0.32,9.85
2022:121088.600,121088.6,,,,,,
,121088.8,1.06,-2.49,-1.03,0.97,-0.04,10.45
2022:121089.100,121089.1,0.55,0.4,2.83,0.88,-0.22,10.41
2022:121089.300,121089.3,0.34,-1.37,-0.18,0.32,-0.12,10.27
,121089.5,,,,,,
2022:121089.700,121089.7,1.64,0.09,0.92,0.4,-0.22,10.38
2022:121089.900,121089.9,1.84,-0.91,0.43,0.2,-0.15,10.35
2022:121090.100,121090.1,,,,,,
,121090.3,2.06,-0.36,0.91,-0.05,-0.42,10.35
,121090.5,3.04,1,-0.81,0.46,-0.11,10.67
,121090.7,3.28,-1.07,0.61,-0.24,-0.37,10.14
2022:121090.900,121090.9,,,,,,
2022:121091.100,121091.1,3.17,3.38,1.18,0.15,0.01,10.86
,121091.3,3.84,-0.29,-1.31,-0.13,0.46,10.57
,121091.5,2.9,-2.84,0.29,-0.25,-0.59,10.23
2022:121091.700,121091.7,1,1.93,0.57,-0.3,-0.23,10.22
2022:121091.900,121091.9,1.65,-0.63,0.26,-0.35,0.03,10.42
2022:121092.100,121092.1,0.23,0.17,0.17,0.08,0.11,10.86
2022:121092.500,121092.5,-0.07,-0.67,-0.33,-0.25,-0.12,10.07
2022:121092.700,121092.7,,,,,,
,121092.9,,,,,,
,121093.1,,,,,,
,121093.3,-0.41,0.05,0.08,-0.03,-0.09,10.29
,121093.5,-0.23,-0.51,-0.83,-0.09,-0.02,10.37
2022:121093.700,121093.7,-0.56,-0.18,-0.21,0.12,-0.13,10.34
,121093.9,-0.28,-0.05,-0.21,0.18,-0.08,10.49
2022:121094.100,121094.1,,,,,,
,121094.3,,,,,,
,121094.5,-0.53,0.29,0.89,-0.11,-0.17,10.3
2022:121094.700,121094.7,0.61,-1.04,-0.97,0,-0.1,10.23
2022:121094.900,121094.9,1.14,-1.04,-0.42,-0.01,0.03,10.26
,121095.3,2.26,-0.46,-0.88,0.21,-0.37,10.28
2022:121095.500,121095.5,1.28,0.25,-0.13,-0.05,-0.35,10.49
2022:121095.700,121095.7,1.85,-0.56,-0.73,-0.08,-0.21,10.26
,121096.1,1.14,0.18,-0.7,-0.11,-0.22,10.49
2022:121096.300,121096.3,0.7,-0.2,-0.75,-0.13,0.06,10.47
2022:121096.500,121096.5,0.65,-0.73,-1.29,0.19,-0.06,10.28
,121096.7,-0.12,-0.18,-1.23,0.81,0.02,10.3
2022:121096.900,121096.9,0.08,-0.81,-0.88,0.63,0.01,10.42
2022:121097.100,121097.1,-0.47,-0.1,0.2,0.7,0.06,10.28
2022:121097.400,121097.4,-0.59,-0.17,-0.34,0.72,-0.12,10.32
2022:121097.800,121097.8,0.08,-1,-1.89,0.94,0.01,10.36
2022:121098.000,121098,-0.02,-1.37,-0.94,0.99,-0.19,10.26
2022:121098.300,121098.3,0.53,-1.05,-0.87,1.11,-0.34,10.05
2022:121098.500,121098.5,2.12,-0.64,-2.55,2.1,-0.22,10.12
2022:121098.700,121098.7,1.69,-0.52,-0.52,2.64,-0.21,9.81
2022:121099.000,121099,,,,,,
,121099.2,0.56,-0.01,-0.91,2.9,-0.11,9.7
2022:121099.400,121099.4,1.69,0.1,0.04,2.89,-0.26,10.25
2022:121099.600,121099.6,,,,,,
,121099.8,1.39,-0.05,-0.62,2.02,-0.08,9.93
2022:121100.000,121100,0.73,0.13,0.71,2.08,-0.19,10.08
2022:121100.300,121100.3,0.64,-0.01,-0.07,2,-0.19,10.23
2022:121100.600,121100.6,0.79,-0.38,-0.05,1.96,-0.07,10.35
2022:121100.900,121100.9,0.7,0.22,-0.14,1.89,-0.06,10.28
,121101.4,0.61,-0.6,-0.59,2.16,-0.08,10.25
2022:121101.600,121101.6,0.51,0.22,1.11,0.54,-0.25,10.27
2022:121101.900,121101.9,0.61,-0.49,-0.23,0.9,-0.13,10.42
2022:121102.200,121102.2,0.45,0.14,-0.03,0.79,-0.22,10.4
2022:121102.600,121102.6,0.39,-0.34,-0.21,0.74,-0.05,10.21
,121102.8,0.1,-0.1,-0.2,0.74,-0.17,10.34
2022:121103.300,121103.3,-0.07,-0.39,-0.45,0.72,-0.19,10.29
2022:121103.500,121103.5,-0.11,-0.68,-0.62,0.58,-0.05,10.3
2022:121103.800,121103.8,,,,,,
2022:121104.100,121104.1,-0.81,-0.26,-0.53,0.64,-0.15,10.33
2022:121104.300,121104.3,,,,,,
2022:121104.500,121104.5,-1.54,-0.69,-0.48,0.57,-0.03,10.39
,121104.7,,,,,,
2022:121104.900,121104.9,-2.08,-0.86,-0.01,0.71,-0.02,10.52
2022:121105.100,121105.1,-2.22,-0.49,0.27,0.66,0.05,10.34
2022:121105.300,121105.3,-2.48,-0.51,-0.18,0.59,-0.1,10.28
2022:121105.500,121105.5,,,,,,
,121105.7,-2.75,-0.62,0.36,0.57,0.05,10.4
,121105.9,-2.93,-0.82,0.16,0.6,-0.03,10.34
,121106.1,-3.11,-0.29,0.33,0.51,-0.08,10.16
,121106.3,-3.03,-0.47,-0.76,0.46,-0.03,10.31
2022:121106.500,121106.5,-3.05,-0.18,-0.27,0.47,0.01,10.31
2022:121106.700,121106.7,-2.92,-1.31,-0.48,0.69,0.05,10.68
,121106.9,-2.64,-0.48,-0.26,0.52,-0.3,9.81
,121107.1,-2.05,0.67,-0.93,0.6,-0.23,10.23
2022:121107.300,121107.3,-1.51,0.69,-1.2,0.91,0.23,10.64
,121107.5,,,,,,
,121107.7,-1.15,-1.74,-0.22,1.01,-0.14,10.55
2022:121107.900,121107.9,-0.8,-2.3,-1.92,0.7,-0.15,10.1
2022:121108.100,121108.1,,,,,,
2022:121108.300,121108.3,-1.11,0.07,0.11,0.78,0.17,10.65
,121108.7,0.08,-3.17,-1.64,0.91,0.11,10.36
,121108.9,-0.94,-0.63,-0.06,0.99,-0.55,10.03
2022:121109.100,121109.1,-1.27,0.58,1.03,0.73,0.24,10.81
2022:121109.400,121109.4,-0.72,-1.3,0.47,0.76,0.09,10.24
2022:121109.600,121109.6,,,,,,
2022:121109.800,121109.8,-0.41,-0.86,1.2,0.83,-0.35,9.89
2022:121110.000,121110,0,-0.02,0.35,1.08,-0.16,10.33
,121110.4,0.13,-0.76,-0.03,1.19,0.03,10.29
2022:121110.600,121110.6,0.54,-0.63,0.21,1.37,-0.18,10.23
2022:121110.800,121110.8,0.73,-1.38,-0.2,1.28,-0.16,10.45
,121111,0.39,-0.49,-1.12,1.45,-0.3,10.17
2022:121111.200,121111.2,0.35,0.48,-0.07,1.7,-0.05,10.19
2022:121111.400,121111.4,0.34,-0.63,-0.42,1.8,-0.21,10.18
2022:121111.800,121111.8,0.41,0.2,-0.14,1.77,-0.09,10.2
,121112,-0.96,0.45,1.97,0.3,-0.3,10.34
2022:121112.300,121112.3,0.76,-0.59,-0.84,0.86,-0.2,10.46
2022:121112.600,121112.6,0.72,-0.54,-1,0.53,-0.14,10.28
2022:121112.900,121112.9,,,,,,
2022:121113.200,121113.2,0.49,-0.84,-0.68,0.72,-0.18,10.4
2022:121113.400,121113.4,0.49,-0.56,-0.57,0.65,-0.15,10.37
,121113.8,0.31,-0.09,-0.09,0.59,-0.11,10.31
2022:121114.000,121114,0.38,-0.6,-0.21,0.68,-0.26,10.36
2022:121114.300,121114.3,0.38,-0.47,-0.31,0.59,-0.26,10.36
2022:121114.500,121114.5,0.33,-0.36,-0.23,0.64,-0.15,10.35
2022:121114.700,121114.7,0.45,-0.63,-0.39,0.6,-0.17,10.31
,121114.9,0.36,-0.26,-0.28,0.63,-0.17,10.29
,121115.1,0.35,-0.36,-0.31,0.59,-0.09,10.33
,121115.3,0.34,-0.1,-0.21,0.62,-0.18,10.3
2022:121115.500,121115.5,0.41,-0.35,-0.41,0.59,-0.16,10.37
2022:121115.700,121115.7,0.42,-0.16,-0.28,0.63,-0.24,10.29
,121115.9,0.37,-0.44,-0.35,0.62,-0.16,10.31
,121116.2,0.4,-0.31,-0.36,0.61,-0.21,10.31
2022:121116.600,121116.6,0.31,-0.08,-0.17,0.61,-0.12,10.32
,121116.8,0.34,-0.33,-0.3,0.6,-0.2,10.32
2022:121117.000,121117,0.3,-0.04,-0.1,0.63,-0.22,10.32
2022:121117.200,121117.2,0.28,-0.09,-0.16,0.56,-0.28,10.28
2022:121117.600,121117.6,0.36,-0.45,-0.15,0.64,-0.22,10.37
,121117.8,0.39,-0.31,-0.29,0.61,-0.26,10.34
2022:121118.000,121118,0.3,-0.38,-0.17,0.47,-0.24,10.38
2022:121118.400,121118.4,0.25,-0.51,-0.07,0.25,-0.25,10.41
2022:121118.600,121118.6,0.34,-0.42,-0.02,0.08,-0.22,10.39
2022:121118.800,121118.8,0.41,-0.37,-0.03,-0.02,-0.28,10.4
,121119,0.79,-0.47,-0.13,-0.07,-0.29,10.41
2022:121119.200,121119.2,1.94,-0.66,-0.12,-0.19,-0.42,10.44
,121119.6,2.76,-0.58,0.02,-0.18,-0.53,10.44
,121119.8,4.03,-0.55,-0.23,-0.06,-0.61,10.41
2022:121120.000,121120,5,-0.41,-0.04,-0.27,-0.63,10.34
,121120.2,5.67,-0.31,-0.29,-0.27,-0.56,10.5
2022:121120.400,121120.4,6,0.16,-0.49,-0.31,-0.51,10.38
2022:121120.800,121120.8,5.87,0.15,0.18,-0.42,-0.49,10.41
2022:121121.000,121121,5.03,0.25,-0.06,-0.4,-0.3,10.45
2022:121121.400,121121.4,4.35,0.16,-0.22,-0.46,-0.46,10.36
2022:121121.600,121121.6,3.56,0.46,-0.48,-0.38,-0.39,10.47
2022:121121.800,121121.8,3.12,-0.36,-0.42,-0.35,-0.21,10.59
2022:121122.000,121122,2.42,-0.01,-0.32,-0.19,-0.41,10.73
